,City,Cloudiness,Country,Date,Humidity,Lat,Lng,Max Temperature,Wind Speed
0,Mataura,85,NZ,1589746747,91,-46.19,168.86,44.83,2.48
5,El Alto,0,PE,1589746753,70,-4.27,-81.21,73.74,17.72
6,Lebu,1,CL,1589746527,77,-37.62,-73.65,60.73,4.5
7,Soyo,43,AO,1589746756,84,-6.13,12.37,78.94,7.11
8,Saint-Philippe,90,RE,1589746757,73,-21.36,55.77,71.6,9.17
11,Rikitea,69,PF,1589746761,86,-23.12,-134.97,77.25,12.15
13,Katherine,96,AU,1589746697,59,-14.47,132.27,66.2,4.7
15,Bluff,43,NZ,1589746509,74,-46.6,168.33,51.19,11.07
17,Poum,100,NC,1589746768,76,-20.23,164.02,73.71,10.6
18,Ushuaia,100,AR,1589746741,70,-54.8,-68.3,42.8,3.04
20,Atuona,5,PF,1589746772,73,-9.8,-139.03,80.49,16.4
23,Cidreira,0,BR,1589746776,63,-30.18,-50.21,69.94,6.8
32,Hithadhoo,100,MV,1589746787,78,-0.6,73.08,83.89,20.83
34,São João da Barra,0,BR,1589746790,73,-21.64,-41.05,77.0,9.17
35,Busselton,0,AU,1589746791,69,-33.65,115.33,48.99,10.31
39,Punta Arenas,75,CL,1589746682,86,-53.15,-70.92,41.0,13.87
40,Gamba,100,GA,1589746797,92,-2.65,10.0,78.49,4.52
42,Maputo,0,MZ,1589746800,68,-25.97,32.59,68.0,9.17
44,Cape Town,100,ZA,1589746639,93,-33.93,18.42,61.0,5.82
45,Menongue,100,AO,1589746804,55,-14.66,17.69,59.11,5.01
46,Faanui,1,PF,1589746805,74,-16.48,-151.75,81.86,8.9
49,New Norfolk,46,AU,1589746809,91,-42.78,147.06,45.0,2.44
55,Maracaju,0,BR,1589746817,58,-21.61,-55.17,76.46,4.63
63,Macaúbas,100,BR,1589746827,80,-13.02,-42.7,75.74,2.28
66,Castro,0,BR,1589746831,57,-24.79,-50.01,64.89,3.74
68,Juwana,99,ID,1589746833,91,-6.71,111.15,77.54,6.04
69,Puerto Ayora,40,EC,1589746746,62,-0.74,-90.35,84.2,19.46
77,La Serena,20,CL,1589746845,67,-29.91,-71.25,62.6,9.17
78,Tual,38,ID,1589746846,81,-5.67,132.75,83.26,23.69
79,Quatre Cocos,40,MU,1589746847,78,-20.21,57.76,71.6,9.17
80,Esperance,75,AU,1589746848,93,-33.87,121.9,57.2,8.05
81,Karaton,40,ID,1589746850,88,-6.34,106.1,78.8,5.82
85,Kaitangata,68,NZ,1589746854,68,-46.28,169.85,51.01,7.18
86,Vaini,75,TO,1589746759,83,-21.2,-175.2,73.4,3.36
87,Hermanus,100,ZA,1589746857,96,-34.42,19.23,53.01,1.01
89,Vila Velha,75,BR,1589746859,88,-20.33,-40.29,75.0,11.41
90,Ancud,90,CL,1589746861,87,-41.87,-73.82,55.99,12.75
91,Chui,0,UY,1589746815,66,-33.7,-53.46,71.06,6.24
94,Yulara,0,AU,1589746866,48,-25.24,130.99,44.6,8.05
96,Bredasdorp,100,ZA,1589746868,87,-34.53,20.04,53.6,3.6
97,Hobart,60,AU,1589746727,93,-42.88,147.33,46.4,9.17
98,Olinda,40,BR,1589746871,83,-8.01,-34.86,80.6,6.93
102,Souillac,40,MU,1589746760,78,-20.52,57.52,71.6,9.17
104,Port Elizabeth,100,ZA,1589746843,77,-33.92,25.57,59.0,3.36
105,Sambava,14,MG,1589746879,86,-14.27,50.17,75.43,12.82
111,Aitape,7,PG,1589746887,85,-3.14,142.35,78.8,5.93
114,Saldanha,100,ZA,1589746891,82,-33.01,17.94,59.0,6.93
115,Bayeux,75,BR,1589746892,83,-7.12,-34.93,80.6,11.41
116,Tautira,40,PF,1589746814,66,-17.73,-149.15,86.0,8.05
121,Labuhan,100,ID,1589746900,87,-6.88,112.21,79.0,8.39
126,Omboué,100,GA,1589746906,90,-1.57,9.26,79.45,6.69
137,Mar del Plata,0,AR,1589746759,52,-38.0,-57.56,64.4,8.05
150,Avarua,75,CK,1589746732,69,-21.21,-159.78,80.6,12.75
160,Nhamundá,29,BR,1589746948,67,-2.19,-56.71,87.84,2.95
169,Kampene,100,CD,1589746958,95,-3.6,26.67,72.66,2.64
170,Arraial do Cabo,20,BR,1589746960,73,-22.97,-42.03,77.0,5.82
172,Itaberaba,41,BR,1589746962,60,-12.53,-40.31,80.85,2.37
176,Lorengau,1,PG,1589746968,81,-2.02,147.27,82.74,10.74
180,Ngunguru,0,NZ,1589746973,90,-35.62,174.5,55.99,8.01
183,Kerema,62,PG,1589746976,90,-7.96,145.78,78.58,2.8
184,Tambopata,20,PE,1589746978,54,-12.73,-69.18,84.2,3.36
188,Alofi,99,NU,1589746983,78,-19.06,-169.92,77.0,5.82
191,Kawalu,100,ID,1589746986,92,-7.38,108.21,74.21,0.78
192,Kruisfontein,100,ZA,1589746988,64,-34.0,24.73,54.27,5.79
197,Codrington,95,AU,1589746994,80,-38.27,141.97,45.93,7.99
198,Port Alfred,100,ZA,1589746995,62,-33.59,26.89,60.01,3.0
202,Ende,58,ID,1589747000,80,-8.84,121.66,77.52,1.32
207,Rocha,0,UY,1589747006,68,-34.48,-54.33,65.14,9.19
211,Nhulunbuy,40,AU,1589747011,78,-12.23,136.77,78.8,11.41
217,Binga,0,ZW,1589747019,47,-17.62,27.34,62.22,2.24
219,Ambilobe,18,MG,1589747021,83,-13.2,49.05,74.19,5.48
224,Howard Springs,96,AU,1589747027,50,-12.5,131.05,77.0,11.41
225,Cavalcante,99,BR,1589747029,83,-13.8,-47.46,75.25,1.88
228,Luanda,20,AO,1589747033,94,-8.84,13.23,78.8,8.05
231,Río Gallegos,75,AR,1589746975,70,-51.62,-69.22,44.6,12.75
234,Malanje,0,AO,1589747040,65,-9.54,16.34,64.76,0.58
237,Flinders,75,AU,1589747044,90,-34.58,150.86,55.0,1.01
239,Gunnedah,0,AU,1589747046,93,-30.98,150.25,42.8,5.82
243,Araguaçu,99,BR,1589747051,68,-12.93,-49.83,84.11,1.79
246,Padang,100,ID,1589746931,85,-0.95,100.35,77.29,7.2
247,Carutapera,83,BR,1589746880,79,-1.2,-46.02,82.18,6.76
249,Mahébourg,40,MU,1589747059,78,-20.41,57.7,71.6,9.17
253,Katobu,99,ID,1589747064,93,-4.94,122.53,76.98,4.94
256,Matata,17,NZ,1589747068,82,-37.88,176.75,54.0,7.0
257,Chicama,7,PE,1589747069,62,-7.84,-79.15,75.79,11.23
260,Bambous Virieux,40,MU,1589747073,78,-20.34,57.76,71.6,9.17
262,Moerai,81,PF,1589747075,75,-22.43,-151.33,79.14,19.48
265,Manokwari,7,ID,1589747079,74,-0.87,134.08,82.98,9.33
270,Antalaha,1,MG,1589747085,87,-14.9,50.28,73.72,9.86
275,Vangaindrano,87,MG,1589747092,77,-23.35,47.6,66.52,9.08
284,Paragominas,100,BR,1589747103,93,-2.97,-47.48,79.79,3.87
285,Touros,20,BR,1589747104,78,-5.2,-35.46,82.4,9.17
286,Sechura,14,PE,1589747106,57,-5.56,-80.82,78.66,13.98
290,Constitución,2,CL,1589747111,58,-35.33,-72.42,67.23,12.28
296,Sidrolândia,0,BR,1589747118,47,-20.93,-54.96,78.8,6.93
306,Coquimbo,20,CL,1589747131,67,-29.95,-71.34,62.6,9.17
307,George,100,ZA,1589747132,87,-33.96,22.46,50.0,6.93
308,Prado,99,BR,1589747133,90,-17.34,-39.22,73.45,8.59
319,Iquitos,75,PE,1589746863,70,-3.75,-73.25,84.2,3.36
325,Anicuns,75,BR,1589747153,78,-16.46,-49.96,75.38,3.87
327,Farafangana,53,MG,1589747156,81,-22.82,47.83,68.52,9.22
328,Mbanza-Ngungu,0,CD,1589747157,75,-5.25,14.87,71.44,1.34
331,Tuatapere,100,NZ,1589747160,83,-46.13,167.68,49.5,6.26
333,Kambove,0,CD,1589747162,63,-10.88,26.6,56.34,4.38
334,Itaituba,20,BR,1589747164,66,-4.28,-55.98,89.6,3.36
338,Sola,100,VU,1589747169,88,-13.88,167.55,79.79,22.93
344,Ambon City,98,ID,1589747176,82,-3.7,128.18,82.4,12.17
345,Henties Bay,0,NA,1589747178,84,-22.12,14.28,63.0,9.4
349,Djambala,4,CG,1589747183,70,-2.54,14.75,74.28,3.67
359,Kokopo,0,PG,1589747195,82,-4.35,152.26,78.89,5.32
366,Carambeí,0,BR,1589747203,57,-24.92,-50.1,62.92,2.17
368,Mitsamiouli,26,KM,1589746923,76,-11.38,43.28,80.08,14.47
369,Songea,0,TZ,1589747207,75,-10.68,35.65,53.51,1.54
372,Miguel Calmon,11,BR,1589747211,73,-11.43,-40.59,74.84,3.2
376,Bairnsdale,0,AU,1589747216,85,-37.83,147.62,44.19,2.73
377,Caravelas,100,BR,1589747217,88,-17.71,-39.25,73.67,5.37
380,Mouila,100,GA,1589747221,93,-1.87,11.06,77.05,1.12
383,Bouloupari,100,NC,1589747224,82,-21.87,166.05,62.6,5.57
384,Kaili,100,ID,1589747226,94,-3.46,120.21,69.96,2.17
390,Collie,1,AU,1589747233,69,-33.37,116.15,48.0,4.14
391,Hervey Bay,75,AU,1589747234,88,-25.3,152.85,62.6,9.17
397,Pangai,75,TO,1589747242,83,-19.8,-174.35,73.4,3.36
400,Ambovombe,1,MG,1589747246,67,-25.17,46.08,63.19,6.35
402,Santa Cruz de la Sierra,0,BO,1589747167,50,-17.8,-63.17,80.6,10.29
403,Port Lincoln,100,AU,1589747249,67,-34.73,135.87,57.99,11.45
404,Salinópolis,71,BR,1589747251,81,-0.61,-47.36,82.58,8.72
408,Mount Gambier,100,AU,1589747256,93,-37.83,140.77,42.8,9.17
409,Coyhaique,90,CL,1589747257,76,-45.58,-72.07,50.0,5.82
410,Dubbo,0,AU,1589747258,93,-32.25,148.62,44.6,8.05
419,Bengkulu,98,ID,1589747270,89,-3.8,102.27,77.47,7.9
427,Narrabri,0,AU,1589747280,81,-30.32,149.78,50.0,13.87
431,Cururupu,99,BR,1589747285,79,-1.83,-44.87,81.77,4.9
433,Mariana,40,BR,1589747288,78,-20.38,-43.42,67.42,2.68
436,Kirakira,30,SB,1589747291,84,-10.45,161.92,81.01,8.7
443,Ntungamo,88,UG,1589747300,88,-0.88,29.65,66.07,3.83
445,Pangkalanbuun,100,ID,1589747302,99,-2.68,111.62,75.06,2.28
448,Ntchisi,36,MW,1589747306,89,-13.53,33.91,52.93,6.51
450,Ahipara,1,NZ,1589747309,84,-35.17,173.17,55.38,7.4
455,Inhambane,1,MZ,1589747315,66,-23.86,35.38,68.32,5.93
458,Trairi,4,BR,1589747072,83,-3.28,-39.27,80.04,6.2
460,Huarmey,10,PE,1589747321,68,-10.07,-78.15,72.36,11.18
464,Pisco,5,PE,1589747326,73,-13.7,-76.22,69.8,6.93
465,Poya,100,NC,1589747329,83,-21.35,165.15,68.61,5.1
481,Formosa do Rio Preto,94,BR,1589747349,81,-11.05,-45.19,78.04,2.75
483,Mwense,0,ZM,1589747351,47,-10.38,28.7,63.32,7.09
485,Yurimaguas,75,PE,1589747354,66,-5.9,-76.08,87.8,3.36
490,Alice Springs,26,AU,1589747360,60,-23.7,133.88,41.0,4.7
492,Richards Bay,0,ZA,1589747363,78,-28.78,32.04,65.08,7.78
499,Chegutu,0,ZW,1589747372,69,-18.13,30.14,55.83,6.6
513,Utete,70,TZ,1589747389,70,-7.99,38.76,67.64,3.33
531,Lima,90,PE,1589747316,77,-12.04,-77.03,66.2,8.05
535,Hualmay,38,PE,1589747417,73,-11.1,-77.61,69.28,9.53
540,Chazuta,40,PE,1589747423,49,-6.57,-76.14,89.6,3.36
542,Morón,0,AR,1589747425,56,-34.65,-58.62,77.0,8.05
553,Isangel,100,VU,1589747439,77,-19.55,169.27,73.87,13.27
557,Aracati,1,BR,1589747280,77,-4.56,-37.77,81.25,7.45
562,Teahupoo,40,PF,1589747450,66,-17.83,-149.27,86.0,8.05
566,Japura,100,ID,1589747455,98,-0.32,102.35,73.94,1.52
571,Igunga,20,TZ,1589747461,78,-4.28,33.88,66.24,5.03
578,Grand Gaube,40,MU,1589747470,78,-20.01,57.66,71.6,9.17
